[{
	"id": "gym_1",
	"email": "lionsddff@gmail.com",
	"name": "LIONS DEN D FITNESS FACTORY",
	"about": "Free Protein, Muscle building tips, weight protein",
	"mobile": 9602886882,
	"address": "C-286,Pradhan Marg , Malviya Nagar, Jaipur",
	"time": "6-11 am , 4-10 pm",
	"area": "Malviya nagar",
	"image": "gym_1_g1.jpg",
	"latitude": 26.854017,
	"longitude": 75.810298
}, {
	"id": "gym_10",
	"email": "kchanwearya@gmail.com",
	"name": "Fitness Plus",
	"about": "A world class health club.",
	"mobile": 9024052017,
	"address": "Natani Tower,R-6B, 2nd floor, Sector-1, Vidyadhar Nagar, Jaipur",
	"time": "10am to 7pm",
	"area": "Vidhyadhar Nagar",
	"image": "gym_10_g1.jpg",
	"latitude": 26.953313,
	"longitude": 75.776657
}, {
	"id": "gym_11",
	"email": "rakesh@bodytecgym.in , narooka_rakesh@yahoo.co.in",
	"name": "BodyTec Health & Fitness",
	"about": "A unit for aerobics, bodybuilding, slimming and beauty programs.",
	"mobile": 9214083398,
	"address": "Basement Shree Nath Tower, Central Spine, Vidyadhar Nagar , Jaipur",
	"time": "10am to 7pm",
	"area": "Vidhyadhar Nagar",
	"image": "gym_11_g1.jpg",
	"latitude": 26.962590,
	"longitude": 75.781131
}, {
	"id": "gym_12",
	"email": "kailash497826@gmail.com",
	"name": "Diamond Fitness Club",
	"about": "Experts in inch-loss and bodybuilding programs.",
	"mobile": 9829739353,
	"address": "Shiv Shakti Paradise, Central Spine, Vidhyadhar Nagar, Jaipur",
	"time": "6-10am and 5-9pm",
	"area": "Vidhyadhar Nagar",
	"image": "gym_12_g1.jpg",
	"latitude": 26.962590,
	"longitude": 75.781131
}, {
	"id": "gym_13",
	"email": "kapilv29@gmail.com",
	"name": "ADITYA PULSE HEALTH CARE AND CURE",
	"about": "",
	"mobile": 9950720484,
	"address": "D221-d, Bhaskar Marg Banipark,jaipur",
	"time": "6 am-1 pm , 5 pm-9 pm",
	"area": "Banipark",
	"image": "gym_13_g1.jpg",
	"latitude": 0,
	"longitude": 0
}, {
	"id": "gym_14",
	"email": "-Not Available-",
	"name": "SUPER BODY ZONE",
	"about": "",
	"mobile": 9887684562,
	"address": "D-181,Udai Apartment Basement,Bhrigu Marg,Banipark",
	"time": "5-9AM & 11AM-5PM",
	"area": "Banipark",
	"image": "gym_14_g1.jpg",
	"latitude": 0,
	"longitude": 0
}, {
	"id": "gym_15",
	"email": "-Not Available-",
	"name": "The Dynamic GYM",
	"about": "The Dynamic Gym offers gym service for boys and girls both. It provides personal training based on weight training, fitness, weight gain, power lifting, etc.",
	"mobile": "9887778522,8003669797",
	"address": "104/138, 2nd floor, Meera Marg, Madhyam Marg, Mansarovar",
	"time": "5:30AM-9AM, 5PM-9PM",
	"area": "Mansarovar",
	"image": "gym_15_g1.jpg",
	"latitude": 26.850517,
	"longitude": 75.767939
}, {
	"id": "gym_16",
	"email": "-Not Available-",
	"name": "Power GYM",
	"about": "Power Gym provides personal training and special care for customers",
	"mobile": 9351789375,
	"address": "84/260, Rudala Plaza-1, Madhyam Marg, Near K.V.5, Mansarovar ",
	"time": "6AM-9AM, 5PM-8:30PM",
	"area": "Mansarovar",
	"image": "gym_16_g1.jpg",
	"latitude": 26.848140,
	"longitude": 75.769610
}, {
	"id": "gym_17",
	"email": "shanbann01@rediffmail.com",
	"name": "Turning Point(For Boys & Girls)",
	"about": "Turning Point provide Gym service for both boys and girls with special training",
	"mobile": 9413749668,
	"address": "51/15 Opp. Tech. Park,Shipra Path, Mansarovar",
	"time": "6AM-9AM, 5:30PM-8:30PM",
	"area": "Mansarovar",
	"image": "gym_17_g1.jpg",
	"latitude": 26.862097,
	"longitude": 75.773185
}, {
	"id": "gym_18",
	"email": "tdngym@gmail.com",
	"name": "Day Night Gym Pvt Ltd.",
	"about": "Day Night Gym gives Extra Discount upto 10% for ladies",
	"mobile": "9950444281,7568844000",
	"address": "146,  Heera Nagar, Ajmer Road, D.C.M., Jaipur",
	"time": "5AM-12PM,4PM-10PM",
	"area": "Vaishali Nagar",
	"image": "gym_18_g2.jpg",
	"latitude": 26.896121,
	"longitude": 75.744489
}, {
	"id": "gym_19",
	"email": "sonusainitlk@gmail.com",
	"name": "MATRIX GYM",
	"about": "Matrix Gym provides Extra discount on couple",
	"mobile": 9413333073,
	"address": "6/18,Opp. Step By Step School near Paratap Stadium, Chitrakoot, Vaishali Nagar, Jaipur",
	"time": "6AM-11AM,5PM-9PM",
	"area": "Vaishali Nagar",
	"image": "gym_19_g1.jpg",
	"latitude": 26.900370,
	"longitude": 75.731454
}, {
	"id": "gym_2",
	"email": "pointthefigure@gmail.com",
	"name": "The Figure Point",
	"about": "We are working in this field for 3 years. We are experts in fitness training, dance training & weight-loss/gain programs. Separate batches for ladies. Trainer Ajay is a player of National Games in jevelling throw",
	"mobile": "9782324482,9782003480",
	"address": "18, Usha Colony opposite Calgiri hospital, malviya nagar, Jaipur",
	"time": "6-11 am , 4-8 pm & sunday off",
	"area": "Malviya nagar",
	"image": "gym_2_g1.jpg",
	"latitude": 26.855308,
	"longitude": 75.821761
}, {
	"id": "gym_20",
	"email": "thetruefitness@gmail.com",
	"name": "The True Fitness Gym",
	"about": "",
	"mobile": "935157111,9875079111",
	"address": "B2/521, Chitrakoot Stadium,Vaishali Nagar, Jaipur",
	"time": "6AM-11AM, 4PM-9PM",
	"area": "Vaishali Nagar",
	"image": "gym_20_g1.jpg",
	"latitude": 26.900322,
	"longitude": 75.731529
}, {
	"id": "gym_21",
	"email": "fitness.fuel.jaipur@gmail.com",
	"name": "Talwalkars GYM",
	"about": "",
	"mobile": 9636036517,
	"address": "107-108, Rathore Nagar, Amrapali Marg, Vaishali Nagar",
	"time": "6AM-10PM",
	"area": "Vaishal Nagar",
	"image": "gym_21_g1.jpg",
	"latitude": 26.911587,
	"longitude": 75.751267
}, {
	"id": "gym_22",
	"email": "amit.denovo@gmail.com",
	"name": "Optimum Fitness Plus",
	"about": "",
	"mobile": 9694843188,
	"address": "1/461, Kargil hero kutti, near Global Hospital, Chitrakoot,  Vaishali Nagar, Jaipur",
	"time": "6AM-9AM,5PM-7PM",
	"area": "Vaishali Nagar",
	"image": "gym_22_g1.jpg",
	"latitude": 26.905993,
	"longitude": 75.738884
}, {
	"id": "gym_23",
	"email": "naveenyadav1970@gmail.com",
	"name": "Robust GYM & SPA",
	"about": "Robust Gym is established since 1993 ",
	"mobile": 9414066711,
	"address": "D-148, Shabri Marg, Hanuman Nagar, Queen's Road, Jaipur",
	"time": "6AM-11AM, 5PM-9:30PM",
	"area": "Vaishali Nagar",
	"image": "gym_23_g1.jpg",
	"latitude": 26.912656,
	"longitude": 75.750373
}, {
	"id": "gym_24",
	"email": "gunjanbhagava123@rediffmail.com",
	"name": "SMART 'N' FIT",
	"about": "SMART 'N' FIT is a gym and aerobics center",
	"mobile": 9929217947,
	"address": "A-6, Mahaveer Udhyan Marg, Bajaj Nagar, Jaipur ",
	"time": "",
	"area": "Tonk Phatak",
	"image": "gym_24_g1.jpg",
	"latitude": 26.873497,
	"longitude": 75.807745
}, {
	"id": "gym_25",
	"email": "kumar.deepak.deepak31@gmail.com",
	"name": "LIONS HEALTH CLUB",
	"about": "",
	"mobile": 8947827763,
	"address": "House No.1227, Kisan Marg, Barket Nagar, Tonk Phatak, Jaipur",
	"time": "5AM-11AM, 4PM-10PM",
	"area": "Tonk Phatak",
	"image": "gym_25_g1.jpg",
	"latitude": 26.871421,
	"longitude": 75.790344
}, {
	"id": "gym_26",
	"email": "eurokids.mansarovar1@gmial.com",
	"name": "EURO KIDS MANSAROVAR",
	"about": "The classes are only for kids upto 6years.",
	"mobile": 8696794040,
	"address": "111/389, Vijay Path, Mansarovar",
	"time": "9AM-12PM",
	"area": "Mansarovar",
	"image": "gym_26_g1.jpg",
	"latitude": 26.848873,
	"longitude": 75.773011
}, {
	"id": "gym_3",
	"email": "figurefitnesspoint@gmail.com",
	"name": "Figure Fitness Point",
	"about": "A unit for weight loss, inch and total health care centre only for women. Sessions include aerobics, power yoga, dumble stretching, mate stretching, abdominal exercises.",
	"mobile": "8947897944, 9024683090",
	"address": "4/18, shivanand marg, malviya nagar, Jaipur",
	"time": "10am to 7pm",
	"area": "Malviya nagar",
	"image": "gym_3_g1.jpg",
	"latitude": 26.855370,
	"longitude": 75.820617
}, {
	"id": "gym_4",
	"email": "fitness@colosseumgym.in",
	"name": "Colosseum Fitness Planet & Slimming Centre",
	"about": "A special centre for fitness training, German therapy, aerobics & power cardio and yoga centre, Fully AC and women trainer also available.",
	"mobile": "9928909112, 9784173024",
	"address": "10/806/A , Virasat Apartments, near Gaurav Tower, Malviya Nagar, Jaipur",
	"time": "6am to 10pm",
	"area": "Malviya nagar",
	"image": "gym_4_g1.jpg",
	"latitude": 26.854579,
	"longitude": 75.807171
}, {
	"id": "gym_5",
	"email": "",
	"name": "Golf Gym",
	"about": "Specialist in fitness program and weight-loss training",
	"mobile": 9928304830,
	"address": "E-30, Sector 12 Rd, Siddharth Nagar, Sector 9, Malviya Nagar ,  Jaipur",
	"time": "10am to 7pm",
	"area": "Malviya nagar",
	"image": "gym_5_g1.jpg",
	"latitude": 26.850820,
	"longitude": 75.811179
}, {
	"id": "gym_6",
	"email": "mannu22arora@gmail.com",
	"name": "Monster's Gym",
	"about": "Experts in home personal training, bodybuilding. weight gain/reduce programs, personalised training and cardio exercises.",
	"mobile": 9667254152,
	"address": "C-341(A), pradhan marg, near Shreemaya restaurant, malviya nagar, Jaipur",
	"time": "10am to 7pm",
	"area": "Malviya nagar",
	"image": "gym_6_g1.jpg",
	"latitude": 26.851204,
	"longitude": 75.812304
}, {
	"id": "gym_7",
	"email": "",
	"name": "Unique Gym & Spa",
	"about": "Exclusive weight regimen with specialized equipments for females",
	"mobile": "9694301119, 9024901119",
	"address": "C-4, Calgiri Road opposite St. Anselm's school, malviya nagar, Jaipur",
	"time": "6-11 am and 4-10pm",
	"area": "Malviya nagar",
	"image": "gym_7_g1.jpg",
	"latitude": 26.857484,
	"longitude": 75.813676
}, {
	"id": "gym_8",
	"email": "rockingsurya@gmail.com",
	"name": "Cuts N Curves Fitness Club",
	"about": "All types of training schedule and diet schedule to designed for maximum fitness strength.",
	"mobile": 8290788822,
	"address": "B-34 Galaxy plaza, Central Spine, vidyadhar nagar , Jaipur",
	"time": "5:30-10 am , 5-8 pm",
	"area": "Vidhyadhar nagar",
	"image": "gym_8_g1.jpg",
	"latitude": 26.962246,
	"longitude": 75.780337
}, {
	"id": "gym_9",
	"email": "sonirajveer810@gmail.com",
	"name": "Samson's Gym",
	"about": "Specialized in bodybuilding and weight training exercises.",
	"mobile": 8107145742,
	"address": "36-37, prithvi nagar, naya khera, vidyadhar nagar",
	"time": "10am to 7pm",
	"area": "Vidhyadhar nagar",
	"image": "gym_9_g1.jpg",
	"latitude": 26.951739,
	"longitude": 75.779362
}]